[{	"location_type": "0", 	"parent_station": "", 	"stop_code": "", 	"stop_desc": "", 	"stop_id": "1", 	"stop_lat": "39.833809", 	"stop_lon": "-75.000325", 	"stop_name": "Lindenwold", 	"stop_timezone": "", 	"stop_url": "http://www.ridepatco.org/stations/lindenwold.asp", 	"wheelchair_boarding": "1", 	"zone_id": "1"}, {	"location_type": "0", 	"parent_station": "", 	"stop_code": "", 	"stop_desc": "", 	"stop_id": "10", 	"stop_lat": "39.951152", 	"stop_lon": "-75.153587", 	"stop_name": "8th and Market", 	"stop_timezone": "", 	"stop_url": "http://www.ridepatco.org/stations/8th.asp", 	"wheelchair_boarding": "1", 	"zone_id": "6"}, {	"location_type": "0", 	"parent_station": "", 	"stop_code": "", 	"stop_desc": "", 	"stop_id": "11", 	"stop_lat": "39.947352", 	"stop_lon": "-75.157642", 	"stop_name": "9-10th and Locust", 	"stop_timezone": "", 	"stop_url": "http://www.ridepatco.org/stations/9th.asp", 	"wheelchair_boarding": "1", 	"zone_id": "6"}, {	"location_type": "0", 	"parent_station": "", 	"stop_code": "", 	"stop_desc": "", 	"stop_id": "12", 	"stop_lat": "39.947944", 	"stop_lon": "-75.162363", 	"stop_name": "12-13th and Locust", 	"stop_timezone": "", 	"stop_url": "http://www.ridepatco.org/stations/12th.asp", 	"wheelchair_boarding": "2", 	"zone_id": "6"}, {	"location_type": "0", 	"parent_station": "", 	"stop_code": "", 	"stop_desc": "", 	"stop_id": "13", 	"stop_lat": "39.948635", 	"stop_lon": "-75.167792", 	"stop_name": "15-16th and Locust", 	"stop_timezone": "", 	"stop_url": "http://www.ridepatco.org/stations/15th.asp", 	"wheelchair_boarding": "1", 	"zone_id": "6"}, {	"location_type": "0", 	"parent_station": "", 	"stop_code": "", 	"stop_desc": "", 	"stop_id": "2", 	"stop_lat": "39.858698", 	"stop_lon": "-75.009198", 	"stop_name": "Ashland", 	"stop_timezone": "", 	"stop_url": "http://www.ridepatco.org/stations/ashland.asp", 	"wheelchair_boarding": "2", 	"zone_id": "1"}, {	"location_type": "0", 	"parent_station": "", 	"stop_code": "", 	"stop_desc": "", 	"stop_id": "3", 	"stop_lat": "39.870157", 	"stop_lon": "-75.011247", 	"stop_name": "Woodcrest", 	"stop_timezone": "", 	"stop_url": "http://www.ridepatco.org/stations/woodcrest.asp", 	"wheelchair_boarding": "1", 	"zone_id": "1"}, {	"location_type": "0", 	"parent_station": "", 	"stop_code": "", 	"stop_desc": "", 	"stop_id": "4", 	"stop_lat": "39.897609", 	"stop_lon": "-75.037141", 	"stop_name": "Haddonfield", 	"stop_timezone": "", 	"stop_url": "http://www.ridepatco.org/stations/haddonfield.asp", 	"wheelchair_boarding": "2", 	"zone_id": "2"}, {	"location_type": "0", 	"parent_station": "", 	"stop_code": "", 	"stop_desc": "", 	"stop_id": "5", 	"stop_lat": "39.907086", 	"stop_lon": "-75.046545", 	"stop_name": "Westmont", 	"stop_timezone": "", 	"stop_url": "http://www.ridepatco.org/stations/westmont.asp", 	"wheelchair_boarding": "2", 	"zone_id": "2"}, {	"location_type": "0", 	"parent_station": "", 	"stop_code": "", 	"stop_desc": "", 	"stop_id": "6", 	"stop_lat": "39.913588", 	"stop_lon": "-75.064559", 	"stop_name": "Collingswood", 	"stop_timezone": "", 	"stop_url": "http://www.ridepatco.org/stations/collingswood.asp", 	"wheelchair_boarding": "2", 	"zone_id": "2"}, {	"location_type": "0", 	"parent_station": "", 	"stop_code": "", 	"stop_desc": "", 	"stop_id": "7", 	"stop_lat": "39.922869", 	"stop_lon": "-75.092025", 	"stop_name": "Ferry Avenue", 	"stop_timezone": "", 	"stop_url": "http://www.ridepatco.org/stations/ferryave.asp", 	"wheelchair_boarding": "1", 	"zone_id": "3"}, {	"location_type": "0", 	"parent_station": "", 	"stop_code": "", 	"stop_desc": "", 	"stop_id": "8", 	"stop_lat": "39.94261", 	"stop_lon": "-75.119217", 	"stop_name": "Broadway", 	"stop_timezone": "", 	"stop_url": "http://www.ridepatco.org/stations/broadway.asp", 	"wheelchair_boarding": "1", 	"zone_id": "4"}, {	"location_type": "0", 	"parent_station": "", 	"stop_code": "", 	"stop_desc": "", 	"stop_id": "9", 	"stop_lat": "39.945686", 	"stop_lon": "-75.1211", 	"stop_name": "City Hall", 	"stop_timezone": "", 	"stop_url": "http://www.ridepatco.org/stations/cityhall.asp", 	"wheelchair_boarding": "2", 	"zone_id": "5"}]
